name,price,location,make,latitude,longitude
2012 Bmw 128i Automatic Clean Title 120k miles,5495.0,Mc Adenville,Bmw,35.268938468974,-81.0763532615376
2014 CHEVROLET CRUZE 1LT AUTO,4550.0,Raleigh,CHEVROLET,35.9020012556534,-78.6279968870099
2010 Subaru Forester 2.5L  4 Cyl.  AWD  142k  27 MPG,5950.0,Cary,Subaru,35.8071985129606,-78.8869978746225
2016 Ford Fusion Titanium,4990.0,Durham,Ford,35.9780997911252,-78.8438994163172
Classic 1971 Ford Mustang,18000.0,Wake Forest,1971,35.9868018741172,-78.5514033160031
Subaru Outback 2007,4900.0,Cary,Outback,35.7981686981098,-78.7822697840451
2008 Infiniti M35,6200.0,Durham,Infiniti,35.9631009019651,-78.9315035172724
HONDA ACCORD EXL V6,7450.0,Creedmoor,ACCORD,36.1224015036523,-78.6861016829265
2010 Mazda 3- Odometer : 128100 miles,5000.0,Cary,Mazda,35.7751982471464,-78.8535984458727
Dual AC 2023 Tesla Model Y Long Range,20200.0,Raleigh,AC,35.8333992999727,-78.5799010908158
2015 Honda CRV Touring - Estate Sale,15000.0,Zebulon,Honda,35.83540350634,-78.285141807211
2016 Infiniti QX80 V8 137K MILES CLEAN TITLE 3RD ROW AUTOMATIC,12995.0,Gold Hill,Infiniti,35.5497995153431,-80.3346015270434
2008 Hyundai Sonata,4000.0,Durham,Hyundai,36.0217992821575,-78.9477972910495
2004 CHEVY IMPALA,1700.0,Raleigh,CHEVY,35.8333992999727,-78.5799010908158
2017 VW Passat R-Line,9200.0,Chapel Hill,VW,35.9202998087555,-79.0372004794813
05 VW Jetta,1000.0,Raleigh,VW,35.7414985885121,-78.6358996938777
"Subaru Forester 2.5i AWD, very low miles, excellent condition",17750.0,Raleigh,Forester,35.9034015645046,-78.7446975036736
2011 Chevy Camaro SS 6.2L,11750.0,Raleigh,Chevy,35.9183907133823,-78.5246679593681
2014 Nissan Altima,8750.0,Wake Forest,Nissan,35.9815014415547,-78.5391975960941
Chrysler Sebring Convertible for sale,3900.0,Durham,Sebring,35.9111983741804,-78.9178018045604
2004 F150,6500.0,Wake Forest,F150,35.9815014415547,-78.5391975960941
"1997 Nissan Maxima GXE 40K Original Miles 2 Owner, V6 Like New",11950.0,Garner,Nissan,35.6072786413475,-78.5837444917053
Honda 2006 CR-V,5000.0,Raleigh,2006,35.780464875199,-78.6391099764036
2003 Chevy S10 Truck with Cap.,7200.0,Chapel Hill,Chevy,35.8516938423703,-79.1034326817215
1966 Corvette Roadster,82500.0,Smithfield,Corvette,35.5067996057786,-78.3478978745083
2010 Jeep Wrangler Rubicon,6500.0,Sanford,Jeep,35.4798992372987,-79.1802995535965
BMW M4,34000.0,Raleigh,M4,35.8949017356143,-78.7051032552432
"2013 Toyota Yaris (4D hatchback) - 98k - No accidents, clean title",7500.0,Raleigh,Toyota,35.8520009477484,-78.6841003413483
Dodge Ram 1500,4500.0,Wendell,Ram,35.7980019673914,-78.3926011875976
2014 Hyundai Elantra,4995.0,Sanford,Hyundai,35.46980085616,-79.1717006030077
1987 GMC pickup square body,3995.0,Sanford,GMC,35.46980085616,-79.1717006030077
2016 Jaguar XF LOW LOW MILES,6995.0,Sanford,Jaguar,35.46980085616,-79.1717006030077
1997 Ford Ranger 5 spd manual,1750.0,Sanford,Ford,35.46980085616,-79.1717006030077
2001 Toyota Camry 1-Owner¬† 2.2L ¬†4 Cyl. ¬†125k¬† 30 MPG,4700.0,Cary,Toyota,35.7956007012722,-78.7941002165983
1987 Mercedes-Benz G Wolf 240GD Diesel 4x4,36000.0,Cary,Mercedes-Benz,35.8138986814165,-78.8836030996865
1991 BMW E34 M5 Sedan,20000.0,Cary,BMW,35.8071985129606,-78.8869978746225
2022 Toyota 4runner SR5 Premium Sport Utility,39500.0,Lillington,Toyota,35.3320016416495,-78.9211965794964
***2010 Nissan Maxima sv**,3500.0,Raleigh,Nissan,35.7666989912139,-78.6007991534343
2019 Ford F250 Super Duty Crew Cab XLT Pickup 4D 6 3/4 ft,18900.0,Raleigh,Ford,35.7593846120017,-78.5384189464505
2017 Land Rover Range Rover Supercharged Sport Utility 4D,25000.0,Raleigh,Land,35.7593846120017,-78.5384189464505
"2002 Honda Crv Ex, AWD",5200.0,Cary,Honda,35.8074987428452,-78.842901896796
2006 Ford Mustang Convertible,6400.0,Clayton,Ford,35.6576995002741,-78.3837014341663
2012 NISSAN ROGUE AWD (38K MILES),6850.0,Raleigh,NISSAN,35.8333992999727,-78.5799010908158
2001 Toyota Corolla CE Automatic Reliable 148k 37 MPG,4250.0,Cary,Toyota,35.7956007012722,-78.7941002165983
2017 Acura TLX Technology Package on Sale,15000.0,Raleigh,Acura,35.7666989912139,-78.6007991534343
2009 HONDA ACCORD,5350.0,Durham,HONDA,35.9780997911252,-78.8438994163172
Best deal on CL,4500.0,Raleigh,deal,35.7666989912139,-78.6007991534343
2012 Mazda CX-9 Touring w/3rd row seats....NON-Smoker,5380.0,Cary,Mazda,35.8071985129606,-78.8869978746225
07 Subaru forester Manual,2400.0,Willow Spring,Subaru,35.5469988976406,-78.6716963780421
2013 f-150 svt raptor,13500.0,Willow Spring,f-150,35.5469988976406,-78.6716963780421
2013 Toyota 4Runner sr5,19500.0,Willow Spring,Toyota,35.5469988976406,-78.6716963780421
2009 Honda Accord LX 4 CYL Runs Excellent 174k 33 MPG,5000.0,Cary,Honda,35.7956007012722,-78.7941002165983
2002 Dodge Ram 2500 Cummins 24-Valve Turbo Diesel - Project Truck!,5500.0,Raleigh,Dodge,35.8887011863558,-78.6393007713494
"2014 Toyota RAV4 Limited - Reliable SUV! - $9,500 OBO",9500.0,Raleigh,Toyota,35.8887011863558,-78.6393007713494
1999 Ford F-250 Super Duty 7.3L Power Stroke Diesel - Project Truck!,4000.0,Raleigh,Ford,35.8887011863558,-78.6393007713494
2017 ram 1500 Laramie,12000.0,Durham,ram,35.9780997911252,-78.8438994163172
2002 F150,2850.0,Wake Forest,F150,35.9815014415547,-78.5391975960941
2006 Acura RSX automatic 139k miles clean title no accident,6000.0,Durham,Acura,36.0120017038613,-78.9009998172191
SOLD!!!!!!!!!Clean 2002 Saturn SL2 167571 original miles...SOLD!!!!!!!!!,2500.0,Clayton,2002,35.5498986370416,-78.5062966406261
2014 hyundai Santa fe,2500.0,Raleigh,hyundai,35.7644994062385,-78.7112023909721
2008 Cadillac Escalade esv awd,8500.0,Louisburg,Cadillac,36.0578016581704,-78.2586001103108
2016 Infiniti QX60,6500.0,Sanford,Infiniti,35.4559152239958,-79.1467087569432
2008 Nissan Sentra SE-R,3600.0,Raleigh,Nissan,35.8479988375497,-78.6316964754928
"2015 FORD F-150 XLT With lift, tires and many accessories and mods",15000.0,Willow Spring,FORD,35.5469988976406,-78.6716963780421
2022 Chevy Blazer 2LT,21750.0,Efland,Chevy,36.1278520511571,-79.1764956867949
2008 Dodge Ram 1500 V6 Runs but needs TLC,1500.0,Youngsville,Dodge,36.0249007027024,-78.474399507215
2018 Lexus GX 460,39999.0,Durham,Lexus,35.9780997911252,-78.8438994163172
2022 Honda Ridgeline RTL-E AWD 11k miles,24950.0,Raleigh,Honda,35.8192535449695,-78.6290035738559
1979 Jeep CJ5,19999.0,Raleigh,Jeep,35.920617227374,-78.7411394357661
1992 mustang gt,15000.0,Stem,mustang,36.2431013657259,-78.6817981969275
1992 Mercedes-Benz 190 e,9000.0,Raleigh,Mercedes-Benz,35.8304382540876,-78.6707721971187
1999 Ford F-350 Super Duty - 10' box truck,7500.0,Efland,Ford,36.0912010869202,-79.1884006038614
Mercedes E320 2001,3450.0,Wake Forest,E320,35.9908022654426,-78.4957989079042
"2013 Nissan Rogue S ($4,300) Newer Transmission",4300.0,Durham,Nissan,36.0217992821575,-78.9477972910495
2005 Chevy Silverado 2500 W/LLY Duramax Engine,7000.0,Oxford,Chevy,36.3312990509568,-78.6134007871797
2006 Honda Civic,3500.0,Raleigh,Honda,35.8949017356143,-78.7051032552432
2023 Nissan Altima,23500.0,Cary,Nissan,35.8071985129606,-78.8869978746225
2,500.0,Sanford,,35.46980085616,-79.1717006030077
2013 ford escape,2100.0,Willow Spring,ford,35.5469988976406,-78.6716963780421
04 Acura TL,5200.0,Wendell,Acura,35.7980019673914,-78.3926011875976
2013 Mazda 3i Daily Driver,4000.0,Carrboro,Mazda,35.9164988067428,-79.1170249594946
2015 Ford Transit 250,18500.0,Raleigh,Ford,35.7082017192076,-78.615402128758
2007 jeep Patriot,2000.0,Durham,jeep,35.9780997911252,-78.8438994163172
Low Mileage 2021 Subaru WRX Clean Title Only 38k Miles,22950.0,Raleigh,Mileage,35.8887011863558,-78.6393007713494
2017 GMC Sierra 1500 SLT Crew Cab,31500.0,Nashville,GMC,35.9842986215104,-77.9595023902815
2012 VW Jetta Automatic  Runs like 2.5L Leather 153k 30 MPG,5000.0,Cary,VW,35.8071985129606,-78.8869978746225
2002 GMC 2500 sierra SLT,10000.0,Wake Forest,GMC,35.9815014415547,-78.5391975960941
2017 Chevy Silverado Pick up Truck LTZ,18450.0,Raleigh,Chevy,35.8262992069758,-78.6491023603502
2017 Type R,26000.0,Zebulon,Type,35.8318007477244,-78.308999769799
2013 Hyundai Sonata BRAND NEW ENGINE,6800.0,Raleigh,Hyundai,35.8013996071164,-78.6876996622171
"2023 Toyota Camry LE ‚Äì Low Mileage, Clean Title",24000.0,Wake Forest,Toyota,36.0277488759018,-78.5510142776602
2011 Acura TSX 3.5L V6 Tech Package,5500.0,Elm City,Acura,35.8109995149733,-77.8560010023435
05 Lexus 430,5000.0,Durham,Lexus,35.9631009019651,-78.9315035172724
2009 LEXUS RX 350,7900.0,Creedmoor,LEXUS,36.1224015036523,-78.6861016829265
2010 Infiniti g37 hard top convertible,6800.0,Willow Spring,Infiniti,35.5469988976406,-78.6716963780421
2020 Ford Transit High top 250 series,13900.0,Garner,Ford,35.6385203110409,-78.5291232791828
2008 Hyundai Elantra (price reduction),600.0,Raleigh,Hyundai,35.7666989912139,-78.6007991534343
2014 TOYOTA COROLLA LE PREMIUM SEDAN 4D,10500.0,Raleigh,TOYOTA,35.7076006864806,-78.6563015750456
1998 Toyota Tacoma Limited,17335.0,Raleigh,Toyota,35.7928006565275,-78.6791007116282
2013 HONDA CR-V LX SPORT UTILITY 4DOOR,8900.0,Raleigh,HONDA,35.7076006864806,-78.6563015750456
Used 2006 Jeep Commander Sport Utility 4D,1250.0,Raleigh,2006,35.7666989912139,-78.6007991534343
1999 Jeep Wrangler Sport,17999.0,Garner,Jeep,35.6813007777699,-78.5975000624501
2011 Nissan Rogue SL AWD Full Equipped,5500.0,Raleigh,Nissan,35.8333992999727,-78.5799010908158
2003 Lexus GX470 (Toyota Landcruiser / Prada),8200.0,Holly Springs,Lexus,35.6263008401448,-78.8457981984502
2020 Jaguar i-pace SE EV400 black PERFECT!  AWD 19K miles,34000.0,Raleigh,Jaguar,35.7644994062385,-78.7112023909721
2012 Mercedes Benz GL 450,5000.0,Durham,Mercedes,35.9780997911252,-78.8438994163172
1994 Corvette 6speed 55k miles,15000.0,Clayton,Corvette,35.6348012419929,-78.4509993379054
BMW M6 (LOW MILES & ROD BEARINGS DONE),18500.0,Raleigh,M6,35.7666989912139,-78.6007991534343
2011 Kia Forte KOUP 6 SPEED!,2995.0,Wendell,Kia,35.7980019673914,-78.3926011875976
2011 Honda Accord Coupe V6,6900.0,Wendell,Honda,35.7980019673914,-78.3926011875976
2005 Ford F350 4x4 6.0 DIESEL WORK TRUCK,10500.0,Wendell,Ford,35.7980019673914,-78.3926011875976
2010 Nissan Altima,2000.0,Cary,Nissan,35.7750996984057,-78.763501405551
1991 Chevrolet Pickup Truck,2500.0,Raleigh,Chevrolet,35.8818044933761,-78.6520364772189
2015 VW Tiguan SEL 2.0 TSI 4motion,6000.0,Macon,VW,36.4164617787471,-78.1199196867114
2006 Lexus Rx330,5500.0,Raleigh,Lexus,35.8173994535445,-78.5939007415813
2018 Ford EcoSport ¬∑ SE Sport Utility 4D,10500.0,Cary,Ford,35.7682012865527,-78.7630980432633
Range Rover Sport,9500.0,Cary,Rover,35.7299013497814,-78.7735035297801
2007 Dodge Ram1500 4x4 hemi 5.7,8699.0,Louisburg,Dodge,36.0578016581704,-78.2586001103108
2010 Mazda CX-9,4500.0,Durham,Mazda,36.0217992821575,-78.9477972910495
Ford Mustang,3000.0,Battleboro,Mustang,36.0067012712988,-77.7073969497329
2006 Dodge Grand Caravan Handicap Wheelchair Accessible Van,5900.0,,Dodge,35.9731001614052,-78.4508016674661
Honda CRV for sale,6000.0,Durham,CRV,36.0217992821575,-78.9477972910495
BMW 335d,6950.0,Lumberton,335d,34.6266447592578,-79.007297812155
"2014 Chevrolet Silverado 1500 Crew Cab, LTZ",19250.0,Rougemont,Chevrolet,36.2393003637132,-78.901903371662
2008 Hyundai Santa Fe( Drive Now),2300.0,Durham,Hyundai,35.9111983741804,-78.9178018045604
"1979 Sierra, 2500 HD Long Bed, $8000obo",8000.0,Durham,"Sierra,",36.0314473184692,-78.9800181456147
2009 Toyota Camry Hybrid LXE,6000.0,Durham,Toyota,36.0917986819004,-78.9298980895306
2018 RANGE ROVER SPORT,20000.0,Raleigh,RANGE,35.9457007466857,-78.6432965790124
2000 F150 190000mi,7500.0,Sanford,F150,35.4582442974329,-79.1659796194236
2013 Ford Fusion Titanium !!Only 54k Miles!!,7800.0,Durham,Ford,35.9799338290273,-78.8753112544758
For Sale BMW 328i 2011 e90-Great conition and Well Maintaned,6000.0,Mebane,Sale,36.0979012553761,-79.2470989840538
2018 Audi Q5,15500.0,Raleigh,Audi,35.7644994062385,-78.7112023909721
Chrysler Pacifica,12000.0,Selma,Pacifica,35.5721993003425,-78.2707989547263
07 Subaru forester Manual,2800.0,Willow Spring,Subaru,35.5469988976406,-78.6716963780421
2011 Toyota Camry,4500.0,Durham,Toyota,36.0917986819004,-78.9298980895306
2007 hummer h3,5500.0,Creedmoor,hummer,36.1224015036523,-78.6861016829265
Ford F150 4dr Lariat Supercrew,24999.0,Cary,F150,35.8071985129606,-78.8869978746225
2019 Toyota Camry SE,15950.0,Raleigh,Toyota,35.8262992069758,-78.6491023603502
2018 Dodge Grand Caravan Clean,9450.0,Raleigh,Dodge,35.8262992069758,-78.6491023603502
2022 Honda HRV EXL Loaded,15950.0,Raleigh,Honda,35.8262992069758,-78.6491023603502
2 fords,1.0,Wake Forest,fords,35.9815014415547,-78.5391975960941
2007 GMC Sierra 4 Door 8 cylinder 155K mi.  Posi-traction,11990.0,Fuquay Varina,GMC,35.5799989748072,-78.7908016985719
"Subaru Crosstrek 2019 For Sale By Owner only 51,470 Miles!",20600.0,Cary,Crosstrek,35.7940262132512,-78.8757277947928
2004 Mercedes Benz E 500 E-Class Sedan 4dr RWD,5000.0,Sanford,Mercedes,35.46980085616,-79.1717006030077
"2016 Jeep Compass Latitude Sport Utility 4D SUV, North Durham",8575.0,Durham,Jeep,36.0917986819004,-78.9298980895306
2007 Toyota Tundra,12799.0,Zebulon,Toyota,35.8322992210061,-78.320201667651
Chevrolet,3000.0,Clayton,,35.6348012419929,-78.4509993379054
2004 Ford F-150 SuperCab XLT ‚Äì LOW MILEAGE!,8805.0,Cary,Ford,35.7956007012722,-78.7941002165983
2012 Volkswagen Passat SE Super Clean 2nd Owner,6500.0,Cary,Volkswagen,35.8071985129606,-78.8869978746225
Low miles good car,5600.0,Cary,miles,35.8052006091291,-78.816496563851
2006 Nissan Maxima,3000.0,Moncure,Nissan,35.6256998074178,-79.0776965634812
2008 Chevy Colorado Z71 crew cab 4wd,5500.0,Raleigh,Chevy,35.7788565826682,-78.6444304624889
1970 Bronco,40000.0,Raleigh,Bronco,35.8489992218599,-78.6549969501462
2019 Toyota Camry SE,23995.0,Cary,Toyota,35.8071985129606,-78.8869978746225
Nissan hardbody pickup,6500.0,Garner,hardbody,35.6813007777699,-78.5975000624501
2004 Chevrolet Tahoe LT 4WD   Sierra-Silverado-Tahoe-Yukon,7000.0,Rolesville,Chevrolet,35.9277138826241,-78.3500304234217
2020 Mazda 6 Mazda6 Grand Touring,18450.0,Raleigh,Mazda,35.8262992069758,-78.6491023603502
2016 GMC Denali 2500hd duramax,38000.0,Princeton,GMC,35.4557989135634,-78.1674029910225
2017 chevy colorado utility/work 4 door truck with power lift gate 2wd/2.5 liter,7500.0,Goldston,chevy,35.5720010569454,-79.3349013284061
"2017 FORD TRANSIT 250 - $7,500 or BEST OFFER (RALEIGH,NC)",7500.0,Raleigh,FORD,35.7644994062385,-78.7112023909721
1981 Ford Custom F100,7900.0,Durham,Ford,35.9631009019651,-78.9315035172724
In hand,18000.0,Cary,hand,35.7299013497814,-78.7735035297801
"For Sale: 2008 Pontiac G6 GT Hardtop Convertible ‚Äì Rare Model, Runs Gr",2500.0,Zebulon,Sale:,35.8321015505668,-78.3174010499485
2006 Linclon town car,3000.0,Raleigh,Linclon,35.8333992999727,-78.5799010908158
"Chrysler Sebring Touring 2010 4cyl  $2,995",2995.0,Raleigh,Sebring,35.8949017356143,-78.7051032552432
2016 Kia Forte5,6500.0,Raleigh,Kia,35.867300639751,-78.5380980900853
2004 Corvette Convertible 38k miles,25000.0,Garner,Corvette,35.6813007777699,-78.5975000624501
Corvair,3000.0,Winnabow,,34.1505666788579,-78.0555450136429
2002 Honda Odyssey Mechanics special,600.0,Cary,Honda,35.7299013497814,-78.7735035297801
1964 Plymouth Belvedere,6000.0,Durham,Plymouth,35.9780997911252,-78.8438994163172
2002 GT Mustang  5 speed,8500.0,Angier,GT,35.4770951818495,-78.704061045014
2013 Chrysler Town and Country Handicap Wheelchair Accessible Van,15800.0,,Chrysler,35.9731001614052,-78.4508016674661
2006 Mustang 6 cylinder,7000.0,Roxboro,Mustang,36.3950457622818,-79.007837538398
Stunning Low Mileage Volvo XC40,20500.0,Apex,Low,35.7014259203228,-78.7925704192854
2006 Honda Civic DX,4100.0,Apex,Honda,35.7225004539421,-78.8407985687302
2003 Dodge Dakota Crew Cab 2WD 4.7 V8,5900.0,Raleigh,Dodge,35.7076006864806,-78.6563015750456
2015 Freightliner,20000.0,Oak Island,Freightliner,33.9161003169893,-78.1255002956357
Honda CRV 11/2018,18000.0,Raleigh,CRV,35.7644994062385,-78.7112023909721
2014 Ford Mustang GT,29000.0,Sanford,Ford,35.513800577077,-79.1487989069797
2006 Acura TL second generation,3500.0,Raleigh,Acura,35.7204206171459,-78.6417232369071
1999 Gen3 4Runner Limited,4250.0,Cary,Gen3,35.7956007012722,-78.7941002165983
2004 Land Rover Discovery Westminster Edition,6000.0,Clayton,Land,35.6348012419929,-78.4509993379054
IMMACULATE 2009 MECEDES-BENZ E350,9800.0,Bynum,2009,35.76939991426,-79.1754981672736
FOR SALE: 1992 MITSUBISHI FUSO Inline 6 Cylinder,6500.0,Spring Hope,SALE:,35.9176017504984,-78.0855983688693
2009 Chevy Corvette,31500.0,Oxford,Chevy,36.3312990509568,-78.6134007871797
2021 Ram 2500 Mega Cab,55000.0,Oxford,Ram,36.3312990509568,-78.6134007871797
1954 Chevy Truck 3100,12000.0,Oxford,Chevy,36.3312990509568,-78.6134007871797
2010 Subaru Legacy 2.5i Limited,4650.0,Cary,Subaru,35.8343996842829,-78.8465974745744
BMW Z3 5 Speed,10950.0,Raleigh,Z3,35.8479988375497,-78.6316964754928
Mercury Marquis,1900.0,Henderson,Marquis,36.3301004232495,-78.3981015824305
AM General Humvee (Helment Top),27995.0,Danville,General,36.5779000859679,-79.4410967638967
2011 BMW 3 Series 328i xDrive Sedan AWD,7500.0,Cary,BMW,35.7956007012722,-78.7941002165983
"2024 Jeep Wrangler Rubicon 4xe ‚Äì $50,000 OBO",50000.0,Raleigh,Jeep,35.8949017356143,-78.7051032552432
2003 Ford F-150 XL (5.1L V8) ‚Äì 4 Door Extended Cab,6300.0,Youngsville,Ford,36.0249007027024,-78.474399507215
1996 MERCURY GRAND MARQUIS LS PREMIUM (LOW MILES)!!!,4500.0,Smithfield,MERCURY,35.4910014404943,-78.3570027468302
2019 Nissan Titian SV 4x4,21500.0,Raleigh,Nissan,35.8949017356143,-78.7051032552432
"2004 Nissan Xterra XE, low miles",5600.0,Cary,Nissan,35.8176005617306,-78.7908016985719
Low Mileage 2019 Lexus ES350 Clean Title,24950.0,Raleigh,Mileage,35.8887011863558,-78.6393007713494
2011 Chevy Silverado LS,9000.0,Chapel Hill,Chevy,35.9202998087555,-79.0372004794813
2018 Audi Q7,19500.0,Bynum,Audi,35.76939991426,-79.1754981672736
2015 Ford Transit 250 (high roof),5800.0,Knightdale,Ford,35.7920013804033,-78.4759980594634
2014 Hyundai Sonata GLS,3900.0,Raleigh,Hyundai,35.8887011863558,-78.6393007713494
FORD L7000 CUMMINS DIESEL/Box/Lift,21000.0,Mebane,L7000,36.0979012553761,-79.2718994622147
2014 M2 Freightliner,13500.0,Raleigh,M2,35.7666989912139,-78.6007991534343
2023 Audi RS 3 TFSI Quattro 2.5t S Tronic - 17k miles - Like New -,61500.0,Apex,Audi,35.7225004539421,-78.8407985687302
2008 Toyota Camry XLE,4500.0,Raleigh,Toyota,35.8333992999727,-78.5799010908158
Low Mileage 2018 Honda CRV EXL Clean Title,17950.0,Raleigh,Mileage,35.8887011863558,-78.6393007713494
1982 International model 1954,9500.0,Carrboro,International,35.9162014416472,-79.0999015428303
Mercedes SL 550 AMG‚ùóÔ∏èLambo doors‚ùóÔ∏èblack or grey matt  read ‚ùóÔ∏è,16900.0,Raleigh,SL,35.8131985269909,-78.6226970274052
2019 VW GTI,18500.0,Chapel Hill,VW,35.9260912661484,-79.0268081709938
Audi Q3 2016 Sportback Premium plus,7200.0,Raleigh,Q3,35.8678982347313,-78.6405985207553
2008 Mercedes S550 Immaculate ! Garage kept 113k,10500.0,Cary,Mercedes,35.8071985129606,-78.8869978746225
WE BUY CARS!! Will Beat CAR-MAX APPRAISALS BY $200-$500!!!,300.0,Raleigh,BUY,35.7907993149492,-78.6530024840614
Chevy 3500 Duramax,18000.0,Bear Creek,3500,35.6128999302752,-79.3725967947036
2019 Chevrolet Silverado LTZ,39500.0,Chapel Hill,Chevrolet,35.7853728316718,-79.0534971180473
2019 Chevy Tahoe LS,24000.0,Raleigh,Chevy,35.8890002703248,-78.6783971194558
2011 BMW 328i,4300.0,Rolesville,BMW,35.9185986970619,-78.4641000178903
2004 Ford Lincoln,3400.0,Carrboro,Ford,35.9162014416472,-79.0999015428303
2011 Hyundai Sonata,3250.0,Clayton,Hyundai,35.6348012419929,-78.4509993379054
2018 Audi Q5 68k miles,15000.0,Apex,Audi,35.7722039697093,-78.9605742498802
1970 Ford Maverick,8000.0,Garner,Ford,35.6799995906172,-78.6084624639437
2012 Ford Focus Titanium Hatchback - super clean!,5500.0,Durham,Ford,35.9042793358467,-78.956064499075
2005 Toyota solora,3000.0,Pine Level,Toyota,35.5176393943041,-78.2025992154177
2001 Honda CR-V  Maintained,3300.0,Sanford,Honda,35.4468991601321,-79.1380003714155
2006 Toyota Corolla,3000.0,Youngsville,Toyota,36.0249007027024,-78.474399507215
2006 Honda Accord for sale,4300.0,Carrboro,Honda,35.9162014416472,-79.0999015428303
2005 Jeep Wrangler Soft Top - Low Miles,19999.0,Cary,Jeep,35.8071985129606,-78.8869978746225
2006 Dodge Durango,3750.0,Garner,Dodge,35.6470986351492,-78.5789018524211
2016 Freightliner 122SD Dump Truck,65000.0,Raleigh,Freightliner,35.8333992999727,-78.5799010908158
LOW Mileage 2016 Honda Odyssey EX-L Fully Loaded Only 60k,13900.0,Raleigh,Mileage,35.8887011863558,-78.6393007713494
MERCEDES BENZ E500 SALE (GOOD CONDITION),3500.0,Raleigh,BENZ,35.8887011863558,-78.6393007713494
2021 Nissan kicks,13500.0,Knightdale,Nissan,35.7789007004184,-78.4898017586629
1996 Chevrolet Corvette Collector's Edition - C4,17750.0,Danville,Chevrolet,36.5779000859679,-79.4410967638967
1996 Chevrolet Corvette Collector's Edition - C4,17750.0,Danville,Chevrolet,36.5779000859679,-79.4410967638967
2006 Toyota Corolla,3950.0,Angier,Toyota,35.4897002533417,-78.7248972281906
2009 Honda Civic EX,3500.0,Sanford,Honda,35.46980085616,-79.1717006030077
Kia Sportage AWD,3900.0,Garner,Sportage,35.6813007777699,-78.5975000624501
1998 Jeep Grand Cherokee Laredo,1900.0,Durham,Jeep,35.9969993769544,-78.9421994933914
2017 hyundai sonata,5725.0,Raleigh,hyundai,35.8481008240372,-78.5712998483957
44 MPG 2015 Hybrid Lexus CT200h,3600.0,Henderson,MPG,36.3301004232495,-78.3981015824305
F-150,11500.0,Clayton,,35.6576995002741,-78.3837014341663
2015 Fiat 500 POP (LOW MILES)!!!,4250.0,Smithfield,Fiat,35.4910014404943,-78.3570027468302
2023 Honda Ridgeline RTL-E,23800.0,Raleigh,Honda,35.8262992069758,-78.6491023603502
2018 Dodge Ram 3500/ Kaufman 3 car hauler,25000.0,Roanoke Rapids,Dodge,36.4461008854876,-77.6731025609072
2007 Mazda MX-5 Miata Grand Touring Hardtop Convertible,10000.0,Apex,Mazda,35.7302015796661,-78.8627164962239
Family va,500.0,Durham,va,35.9882084855042,-78.9285865891376
GMC 2006 2500HD,6900.0,Angier,2006,35.4897002533417,-78.7248972281906
Porsche Macan Turbo,17500.0,Cary,Macan,35.8343996842829,-78.8465974745744
2004 Chevrolet Tahoe,6000.0,Durham,Chevrolet,36.0338990048744,-78.8966969041779
"1997 DODGE RAM 1500 70,000 MILES GARAGE KEPT",9000.0,Sanford,DODGE,35.4468991601321,-79.1380003714155
2014 Chevrolet Cruze LS,3500.0,Raleigh,Chevrolet,35.7239007627934,-78.5480016655736
2007 h3 hummer,6500.0,Creedmoor,h3,36.1224015036523,-78.6861016829265
Food Truck For Sale,25000.0,Raeford,Truck,34.9889998846551,-79.2227975521325
2013 Honda fit Sport VSA Hatchback 4D,7500.0,Durham,Honda,35.9111983741804,-78.9178018045604
BMW 323i Convertible 1999,5500.0,South Hill,323i,36.7124002094942,-78.1534016213837
2003  Toyota  Highlander Limited,3500.0,Stem,Toyota,36.1999003479754,-78.7221991699334
1950  Ford,38000.0,Raleigh,Ford,35.867300639751,-78.5380980900853
2008 Hyundai Entourage,3500.0,Louisburg,Hyundai,36.0578016581704,-78.2586001103108
2020 BMW X1 xdrive28i,21995.0,Apex,BMW,35.7225004539421,-78.8407985687302
1970 Plymouth Barracuda Convertible - 383 - Factory Air - 1 of 66 Made,116900.0,Salina,Plymouth,38.8237004100673,-97.6421032284319
Nissan 300zx Twin Turbo 1991,15000.0,Raleigh,300zx,35.8949017356143,-78.7051032552432
Nissan 300zx Twin Turbo 1991,20000.0,Raleigh,300zx,35.8949017356143,-78.7051032552432
2019 Chevrolet Trax,16000.0,Wake Forest,Chevrolet,35.9579987127997,-78.5235019902551
2014 VW Passat,5000.0,Durham,VW,35.996698574112,-78.8966012202261
2003 Jaguar XKR Convertible,12200.0,Raleigh,Jaguar,35.7076006864806,-78.6563015750456
Ram 2500 diesel 2012,33500.0,Hillsborough,2500,36.0888995154572,-79.0175978744376
2017 International 26' Box Truck,25000.0,Raleigh,International,35.8162220252756,-78.5432478347476
07' Toyota Silver Camry,5900.0,Four Oaks,Toyota,35.403998945224,-78.4152983376927
Chevy Avalanche,11500.0,Lillington,Avalanche,35.3363492453987,-78.9184045561609
2010 Mazda CX-9 AWD,4250.0,Raleigh,Mazda,35.7644994062385,-78.7112023909721
8K ORIGINAL MILES-04 FORD F250 SUPER DUTY XCAB 8FT BED,23.0,Bath,ORIGINAL,35.4702002077432,-76.7714967474957
2023 Acura Integra A-Spec with Technology,25500.0,Bahama,Acura,36.1587934909659,-78.8810826583458
2015 Chevy Impala,4700.0,Raleigh,Chevy,35.8771807239697,-78.5161595361109
2016 BMW 528i xDrive AWD ‚Äì Fully Loaded & Well Maintained,14750.0,Raleigh,BMW,35.9054888497522,-78.7716293848323
2018 Chevrolet Camaro LT Coupe 2D,14000.0,Holly Springs,Chevrolet,35.6263008401448,-78.8457981984502
2012 Ford F-150-Custom Contractor Setup-Low Miles,24995.0,Raleigh,Ford,35.8333992999727,-78.5799010908158
2009 Mini Cooper S Convertible 66K Miles Excellent Condition,5750.0,Durham,Mini,36.0149724900289,-78.9295909841524
2008 Dodge Charger,3500.0,Garner,Dodge,35.6813007777699,-78.5975000624501
04 Chevy Trailblazer,2300.0,Raleigh,Chevy,35.7666989912139,-78.6007991534343
1983 Porsche 944,17900.0,Smithfield,Porsche,35.5067996057786,-78.3478978745083
2013 Chevrolet Sonic Ls,3995.0,Raleigh,Chevrolet,35.8479988375497,-78.6316964754928
2017 Ford Explorer Sport in EXCELLENT condition w/ dealer updates,13999.0,Cary,Ford,35.7445725070828,-78.8363518432824
BMW 128i Convertible  2011,16500.0,South Hill,128i,36.7124002094942,-78.1534016213837
Turnkey opportunity - built for producing funnel cakes or mini donuts,35000.0,Apex,opportunity,35.7225004539421,-78.8407985687302
2003 JEEP WRANGLER 4.0 NANUAL TRANSMISSIONS,4900.0,Raleigh,JEEP,35.7666989912139,-78.6007991534343
F150 1985 bullnose,3000.0,Efland,1985,36.0917986819004,-79.2193002177512
"2013 Volkswagen Touareg TDI ‚Äì AWD Diesel SUV,",12500.0,Sanford,Volkswagen,35.4791647054054,-79.1795896588884
1999 Chevrolet Z71,9000.0,Moncure,Chevrolet,35.5958005778383,-79.132297149523
Cadillact 2006 CTS Black,2250.0,Raleigh,2006,35.8394984357016,-78.6922008186554
Audi A4 quattro 2.0 Turbo,5000.0,Burlington,A4,36.1288014422236,-79.4113992154611
1999 BMW Z3 M Coupe,25000.0,Cary,BMW,35.7641000546554,-78.7786028541565
1994 ACURA LEGEND,1500.0,Raleigh,ACURA,35.867300639751,-78.5380980900853
2014 Kia Sorento LX,8500.0,Goldston,Kia,35.5642999312215,-79.3385006492749
1966 Ford Galaxie 500,6000.0,Raleigh,Ford,35.7666989912139,-78.6007991534343
2010 Toyota Corolla S,2200.0,Raleigh,Toyota,35.8333992999727,-78.5799010908158
2012 Honda Pilot 4 wheel XL,5500.0,Cary,Honda,35.8071985129606,-78.8869978746225
2020 Subaru Forester - Limited,17500.0,Holly Springs,Subaru,35.6353392493625,-78.8321514896865
2009 Toyota Camry excellent condition,6600.0,Raleigh,Toyota,35.8709990823184,-78.5340002959347
2010 cadillac CTS premium,5500.0,Wake Forest,cadillac,35.9460015495281,-78.5037011418143
"Chevy Tahoe, 2011 LT, 4WD",6195.0,Raleigh,"Tahoe,",35.7142532994395,-78.6073492069478
2004 Lincoln Navigator,2500.0,Durham,Lincoln,35.9479994533596,-78.9560031925909
Sale by owner,9000.0,Raleigh,by,35.7666989912139,-78.6007991534343
2007 Honda EX Accord for sale,6000.0,Raleigh,Honda,35.7076006864806,-78.6563015750456
Honda civic for sale,6000.0,Raleigh,civic,35.7076006864806,-78.6563015750456
BMW 335d,6950.0,Lumberton,335d,34.6266447592578,-79.007297812155
2015 hyundai sonata limited hybrid,3500.0,Raleigh,hyundai,35.8333992999727,-78.5799010908158
2023 Toyota Tacoma TRD off-road 4x4,38000.0,Chapel Hill,Toyota,35.9082545170291,-79.0127277331792
2019 Ram 1500 Laramie,34495.0,Cary,Ram,35.7641000546554,-78.7786028541565
2019  Subaru Ascent Touring Clean Carfax,13978.0,Chapel Hill,Subaru,35.9181993454787,-79.0035002478891
Chevrolet Silverado 2021 V8,19800.0,Benson,Silverado,35.4037015801283,-78.5421007732419
2005 Nissan Titan,6000.0,Youngsville,Nissan,36.0249007027024,-78.474399507215
2013 Hyundai Elantra GT Hatchback 4D,5200.0,Durham,Hyundai,35.9631009019651,-78.9315035172724
2003 Tiburon mechanics special to fix or for parts,800.0,Wake Forest,Tiburon,35.9815014415547,-78.5391975960941
2013 Kia Sorento,4600.0,Durham,Kia,35.9631009019651,-78.9315035172724
1966 Buick Skylark (May Trade for Classic Trucks or 2 Door Cars),13900.0,Durham,Buick,35.9631009019651,-78.9315035172724
2010 Mercury Milan Premium,5800.0,Wendell,Mercury,35.7980019673914,-78.3926011875976
2011 Honda Accord Coupe V6,6900.0,Wendell,Honda,35.7980019673914,-78.3926011875976
1977 Chevrolet Corvette,17500.0,Clayton,Chevrolet,35.6348012419929,-78.4509993379054
Carfax & Clean Title Ready to Ride!,7000.0,Raleigh,&,35.867300639751,-78.5380980900853
2003 Chevy Silverado 1500  4x4 z71 off-road,7500.0,Louisburg,Chevy,36.0578016581704,-78.2586001103108
2014 Honda accord 4 cylinder ( ice cold a/c ü•∂,6800.0,Louisburg,Honda,36.0578016581704,-78.2586001103108
2013 Volvo XC70 Platinum 3.2,6500.0,Raleigh,Volvo,35.7076006864806,-78.6563015750456
2020 Genesis G80 3.3T Sport Sedan 4D,32850.0,Holly Springs,Genesis,35.6263008401448,-78.8457981984502
2016 Dodge Journey Clean Car,6395.0,Angier,Dodge,35.4897002533417,-78.7248972281906
2019 Acura TLX SH-AWD Tech Package,15450.0,Raleigh,Acura,35.8262992069758,-78.6491023603502
2015 Honda Pilot EXL 62k miles only,14950.0,Raleigh,Honda,35.8262992069758,-78.6491023603502
2015 Lexus IS250 IS 250 AWD,15450.0,Raleigh,Lexus,35.8262992069758,-78.6491023603502
2017 jeep patriot high altitude,13350.0,Chapel Hill,jeep,35.9568992067909,-79.0540981507744
3018 Lexus Rx 350 F-Sport,25700.0,Raleigh,Lexus,35.9034015645046,-78.7446975036736
1973 Mustang Mach 1,12000.0,Raleigh,Mustang,35.8154198843625,-78.5846870072783
2014 GMC Terrian -SLT,7000.0,Youngsville,GMC,36.0249007027024,-78.474399507215
2007 GMC Envoy 4x4,3750.0,Apex,GMC,35.7225004539421,-78.8407985687302
1979 GMC s1500,29500.0,Raleigh,GMC,35.7666989912139,-78.6007991534343
"For Sale: 2018 Hyundai Ioniq Hybrid SEL ‚Äì $13,400 (OBO)",13400.0,Chapel Hill,Sale:,35.9244216671335,-79.0574860502168
1989VW Westfalia Camper Van,25000.0,Cary,Westfalia,35.7564023666782,-78.7603661804962
AWARD WINNING 2016 Polaris Slingshot S,40000.0,Butner,WINNING,36.1359015352205,-78.7635970895028
Infinity JX 35 for sale with DVD  (New Tires),2900.0,Garner,JX,35.6813007777699,-78.5975000624501
2003 Explorer XLT V6 4D 4x4,1250.0,Cary,Explorer,35.7473387473175,-78.8437831058848
F150 2022 Lariat,46000.0,Clayton,2022,35.6576995002741,-78.3837014341663
2005 Infiniti G35 Open to Trades,2000.0,Youngsville,Infiniti,35.9893423689807,-78.4465165161165
2011 Toyota Prius - Good Condition,6500.0,Raleigh,Toyota,35.7644994062385,-78.7112023909721
2023 Nissan Frontier Pro-4X Crew Cab,38500.0,Garner,Nissan,35.6376184754715,-78.6248622349129
2005 NISSAN XTERRA S,6700.0,Rocky Mount,NISSAN,35.990401194986,-77.8468015919853
2013 Honda Odyssey EX-L for sale,12000.0,Cary,Honda,35.8343996842829,-78.8465974745744
2010 Ford Crown Vic Police Interceptor ‚Äì $4000 (AS-IS),4000.0,Raleigh,Ford,35.7644994062385,-78.7112023909721
